<?xml version="1.0" encoding="ISO-8859-1"?>
<!-- This is the global configuration file for the evaluation of spectra in the NOVAC Post Processing Program -->

<NovacPPPConfiguration>
	<!-- The following instruments are for Popocatepetl -->
	<instrument>
		<serial>D2J2142</serial>
		<location>
			<name>Chipiquixtle</name>
			<time_from>2005.01.25</time_from>
			<time_to>9999.12.31</time_to>
			<latitude>19.009481</latitude>
			<longitude>-98.656677</longitude>
			<altitude>3979.544578</altitude>
			<volcano>Popocatepetl</volcano>
			<compass>65.0</compass>
			<coneangle>60.0</coneangle>
			<type>0</type>
			<spec>S2000</spec>
		</location>
	</instrument>
	<instrument>
		<serial>D2J2143</serial>
		<location>
			<name>Tlamacas</name>
			<time_from>2007.01.25</time_from>
			<time_to>2008.04.01</time_to>
			<latitude>19.066721</latitude>
			<longitude>-98.628674</longitude>
			<altitude>4030.383085</altitude>
			<volcano>Popocatepetl</volcano>
			<compass>160.0</compass>
			<coneangle>60.0</coneangle>
			<type>0</type>
			<spec>S2000</spec>
		</location>
		<location>
			<name>Cruz Blanca</name>
			<time_from>2008.04.02</time_from>
			<time_to>9999.12.31</time_to>
			<latitude>19.056522</latitude>
			<longitude>-98.637387</longitude>
			<altitude>4045.762195</altitude>
			<volcano>Popocatepetl</volcano>
			<compass>160.0</compass>
			<coneangle>60.0</coneangle>
			<type>0</type>
			<spec>S2000</spec>
		</location>		
	</instrument>
	<instrument>
		<serial>I2J5897</serial>
		<location>
			<name>Tlamacas</name>
			<time_from>2005.01.01</time_from>
			<time_to>2008.04.01</time_to>
			<latitude>19.066721</latitude>
			<longitude>-98.628674</longitude>
			<altitude>4030.383085</altitude>
			<volcano>Popocatepetl</volcano>
			<compass>160.0</compass>
			<coneangle>60.0</coneangle>
			<type>0</type>
			<spec>S2000</spec>
		</location>
	</instrument>
	<instrument>
		<serial>D2J2144</serial>
		<location>
			<name>Colibri</name>
			<time_from>2007.01.25</time_from>
			<time_to>9999.12.31</time_to>
			<latitude>18.986904</latitude>
			<longitude>-98.557734</longitude>
			<altitude>2672.888462</altitude>
			<volcano>Popocatepetl</volcano>
			<compass>280.0</compass>
			<coneangle>60.0</coneangle>
			<type>0</type>
			<spec>S2000</spec>
		</location>
	</instrument>
	<instrument>
		<serial>HR2B2203</serial>
		<location>
			<name>Tlamacas</name>
			<time_from>2007.01.25</time_from>
			<time_to>9999.12.31</time_to>
			<latitude>19.066721</latitude>
			<longitude>-98.628674</longitude>
			<altitude>4030.383085</altitude>
			<volcano>Popocatepetl</volcano>
			<compass>0.0</compass>
			<coneangle>0.0</coneangle>
			<type>1</type>
			<spec>HR2000</spec>
		</location>
	</instrument>
	
	<!-- The following instruments are for Tungurahua -->
	
	<instrument>
		<serial>D2J2140</serial>
		<location>
			<name>Pillate</name>
			<time_from>2007.01.25</time_from>
			<time_to>9999.12.31</time_to>
			<latitude>-1.453592</latitude>
			<longitude>-78.513047</longitude>
			<altitude>2608.218182</altitude>
			<volcano>Tungurahua</volcano>
			<compass>90.0</compass>
			<coneangle>90.0</coneangle>
			<type>0</type>
			<spec>SD2000</spec>
		</location>
	</instrument>
	<instrument>
		<serial>I2J8548</serial>
		<location>
			<name>Huayrapata</name>
			<time_from>2007.01.25</time_from>
			<time_to>9999.12.31</time_to>
			<latitude>-1.404719</latitude>
			<longitude>-78.494780</longitude>
			<altitude>2908.754237</altitude>
			<volcano>Tungurahua</volcano>
			<compass>144.000000</compass>
			<coneangle>60.0</coneangle>
			<type>0</type>
			<spec>S2000</spec>
		</location>
	</instrument>
	<instrument>
		<serial>I2J8546</serial>
		<location>
			<name>Bayushig</name>
			<time_from>2007.01.25</time_from>
			<time_to>9999.12.31</time_to>
			<latitude>-1.543498</latitude>
			<longitude>-78.517178</longitude>
			<altitude>2781.756000</altitude>
			<volcano>Tungurahua</volcano>
			<compass>30.0</compass>
			<coneangle>60.0</coneangle>
			<type>0</type>
			<spec>S2000</spec>
		</location>
	</instrument>
	<instrument>
		<serial>HR2B2202</serial>
		<location>
			<name>Huayrapata_hd</name>
			<time_from>2007.01.25</time_from>
			<time_to>9999.12.31</time_to>
			<latitude>2.689573</latitude>
			<longitude>-82.521578</longitude>
			<altitude>2323.600000</altitude>
			<volcano>Tungurahua</volcano>
			<compass>0.0</compass>
			<coneangle>0.0</coneangle>
			<type>1</type>
			<spec>HR2000</spec>
		</location>
	</instrument>
</NovacPPPConfiguration>